%time,field.header.seq,field.header.stamp,field.header.frame_id,field.orientation.x,field.orientation.y,field.orientation.z,field.orientation.w,field.orientation_covariance0,field.orientation_covariance1,field.orientation_covariance2,field.orientation_covariance3,field.orientation_covariance4,field.orientation_covariance5,field.orientation_covariance6,field.orientation_covariance7,field.orientation_covariance8,field.angular_velocity.x,field.angular_velocity.y,field.angular_velocity.z,field.angular_velocity_covariance0,field.angular_velocity_covariance1,field.angular_velocity_covariance2,field.angular_velocity_covariance3,field.angular_velocity_covariance4,field.angular_velocity_covariance5,field.angular_velocity_covariance6,field.angular_velocity_covariance7,field.angular_velocity_covariance8,field.linear_acceleration.x,field.linear_acceleration.y,field.linear_acceleration.z,field.linear_acceleration_covariance0,field.linear_acceleration_covariance1,field.linear_acceleration_covariance2,field.linear_acceleration_covariance3,field.linear_acceleration_covariance4,field.linear_acceleration_covariance5,field.linear_acceleration_covariance6,field.linear_acceleration_covariance7,field.linear_acceleration_covariance8
1368538303407492220,12870,1368538303407492220,imu,0.000413160188834,-0.0167005137648,-0.132120125292,0.991092929362,0.0001,0.0,0.0,0.0,0.0001,0.0,0.0,0.0,0.0001,-0.00821625813842,0.00772173563018,-0.00407149177045,0.0001,0.0,0.0,0.0,0.0001,0.0,0.0,0.0,0.0001,0.345240265131,0.0297332890332,9.80447101593,0.0001,0.0,0.0,0.0,0.0001,0.0,0.0,0.0,0.0001
1368538303417490110,12871,1368538303417490110,imu,0.00041514814609,-0.0166566345053,-0.132132610394,0.991092002515,0.0001,0.0,0.0,0.0,0.0001,0.0,0.0,0.0,0.0001,-0.00479387724772,0.0163295790553,-0.00189123442397,0.0001,0.0,0.0,0.0,0.0001,0.0,0.0,0.0,0.0001,0.327909916639,0.0585428103805,9.83365917206,0.0001,0.0,0.0,0.0,0.0001,0.0,0.0,0.0,0.0001
1368538303427488269,12872,1368538303427488269,imu,0.000394241965019,-0.0166380876577,-0.132134513578,0.991092068848,0.0001,0.0,0.0,0.0,0.0001,0.0,0.0,0.0,0.0001,-0.00822377577424,0.01114396099,-0.00018721370725,0.0001,0.0,0.0,0.0,0.0001,0.0,0.0,0.0,0.0001,0.288726657629,0.092239677906,9.83395767212,0.0001,0.0,0.0,0.0,0.0001,0.0,0.0,0.0,0.0001
1368538303438494347,12873,1368538303438494347,imu,0.000406426411779,-0.0165866335943,-0.132169251156,0.991088294479,0.0001,0.0,0.0,0.0,0.0001,0.0,0.0,0.0,0.0001,-0.0030806013383,0.0180770233274,-0.00640995474532,0.0001,0.0,0.0,0.0,0.0001,0.0,0.0,0.0,0.0001,0.323072224855,0.0585693083704,9.82400798798,0.0001,0.0,0.0,0.0,0.0001,0.0,0.0,0.0,0.0001
1368538303448369437,12874,1368538303448369437,imu,0.000436001652667,-0.016574823383,-0.132149140556,0.991091161187,0.0001,0.0,0.0,0.0,0.0001,0.0,0.0,0.0,0.0001,0.00204996787943,0.0111567601562,0.00459124660119,0.0001,0.0,0.0,0.0,0.0001,0.0,0.0,0.0,0.0001,0.352452129126,0.0393594689667,9.81889343262,0.0001,0.0,0.0,0.0,0.0001,0.0,0.0,0.0,0.0001
1368538303458369001,12875,1368538303458369001,imu,0.000457631216006,-0.0166096567814,-0.132152663471,0.991090098534,0.0001,0.0,0.0,0.0,0.0001,0.0,0.0,0.0,0.0001,0.00117721094284,0.00124983605929,-0.000177237438038,0.0001,0.0,0.0,0.0,0.0001,0.0,0.0,0.0,0.0001,0.325381428003,0.0778662934899,9.83358097076,0.0001,0.0,0.0,0.0,0.0001,0.0,0.0,0.0,0.0001
1368538303468367289,12876,1368538303468367289,imu,0.000420792327413,-0.0165824350763,-0.132166405964,0.991088738164,0.0001,0.0,0.0,0.0,0.0001,0.0,0.0,0.0,0.0001,-0.0116450488567,0.0124373873696,-0.00235565705225,0.0001,0.0,0.0,0.0,0.0001,0.0,0.0,0.0,0.0001,0.293580710888,0.101943947375,9.82898616791,0.0001,0.0,0.0,0.0,0.0001,0.0,0.0,0.0,0.0001
1368538303478368620,12877,1368538303478368620,imu,0.000443757159615,-0.0165781962035,-0.132180610062,0.991086904774,0.0001,0.0,0.0,0.0,0.0001,0.0,0.0,0.0,0.0001,0.000332225637976,0.00901827961206,-0.00232058926485,0.0001,0.0,0.0,0.0,0.0001,0.0,0.0,0.0,0.0001,0.332806646824,0.0634357333183,9.82385826111,0.0001,0.0,0.0,0.0,0.0001,0.0,0.0,0.0,0.0001
1368538303488364732,12878,1368538303488364732,imu,0.000406978364558,-0.0166116095287,-0.132233652841,0.991079285352,0.0001,0.0,0.0,0.0,0.0001,0.0,0.0,0.0,0.0001,-0.0101543795317,0.000396418821765,-0.0101331323385,0.0001,0.0,0.0,0.0,0.0001,0.0,0.0,0.0,0.0001,0.36707085371,0.0296789053828,9.83333301544,0.0001,0.0,0.0,0.0,0.0001,0.0,0.0,0.0,0.0001
1368538303498256825,12879,1368538303498256825,imu,0.000386391711814,-0.01660627143,-0.132223056807,0.991080796756,0.0001,0.0,0.0,0.0,0.0001,0.0,0.0,0.0,0.0001,-0.00822161510587,0.00811931025237,0.00282832351513,0.0001,0.0,0.0,0.0,0.0001,0.0,0.0,0.0,0.0001,0.318173527718,0.058530960232,9.82892513275,0.0001,0.0,0.0,0.0,0.0001,0.0,0.0,0.0,0.0001
1368538303508236413,12880,1368538303508236413,imu,0.000421268183495,-0.016603827653,-0.132207983754,0.991082834314,0.0001,0.0,0.0,0.0,0.0001,0.0,0.0,0.0,0.0001,0.00332317128778,0.00943596754223,0.00329778390005,0.0001,0.0,0.0,0.0,0.0001,0.0,0.0,0.0,0.0001,0.283835142851,0.0994940027595,9.82912254333,0.0001,0.0,0.0,0.0,0.0001,0.0,0.0,0.0,0.0001
1368538303518225845,12881,1368538303518225845,imu,0.000438677060651,-0.0166250007624,-0.132216945238,0.991081276336,0.0001,0.0,0.0,0.0,0.0001,0.0,0.0,0.0,0.0001,-0.000100756107713,0.00384173588827,-0.00125249370467,0.0001,0.0,0.0,0.0,0.0001,0.0,0.0,0.0,0.0001,0.323027580976,0.0682352334261,9.82395362854,0.0001,0.0,0.0,0.0,0.0001,0.0,0.0,0.0,0.0001
1368538303528224052,12882,1368538303528224052,imu,0.000445041881833,-0.01666001197,-0.132219297308,0.991080371795,0.0001,0.0,0.0,0.0,0.0001,0.0,0.0,0.0,0.0001,-0.00138281204272,0.00124861532822,0.000250763696386,0.0001,0.0,0.0,0.0,0.0001,0.0,0.0,0.0,0.0001,0.342675030231,0.0393043905497,9.82387161255,0.0001,0.0,0.0,0.0,0.0001,0.0,0.0,0.0,0.0001
1368538303538218473,12883,1368538303538218473,imu,0.00041044571144,-0.0166637045367,-0.132206858558,0.991081984013,0.0001,0.0,0.0,0.0,0.0001,0.0,0.0,0.0,0.0001,-0.0107911350206,0.00595579389483,0.00324415741488,0.0001,0.0,0.0,0.0,0.0001,0.0,0.0,0.0,0.0001,0.32300722599,0.0682136192918,9.82880973816,0.0001,0.0,0.0,0.0,0.0001,0.0,0.0,0.0,0.0001
1368538303548155504,12884,1368538303548155504,imu,0.000393229490098,-0.0166693803175,-0.132235821811,0.991078031519,0.0001,0.0,0.0,0.0,0.0001,0.0,0.0,0.0,0.0001,-0.00694655394182,0.00642350688577,-0.00579994404688,0.0001,0.0,0.0,0.0,0.0001,0.0,0.0,0.0,0.0001,0.298483401537,0.0922731459141,9.83383560181,0.0001,0.0,0.0,0.0,0.0001,0.0,0.0,0.0,0.0001
1368538303558124678,12885,1368538303558124678,imu,0.000424483459322,-0.0167031345118,-0.132266927827,0.991073299466,0.0001,0.0,0.0,0.0,0.0001,0.0,0.0,0.0,0.0001,0.00289301760495,0.00170972384512,-0.00577139435336,0.0001,0.0,0.0,0.0,0.0001,0.0,0.0,0.0,0.0001,0.332895964384,0.0441038869321,9.82396697998,0.0001,0.0,0.0,0.0,0.0001,0.0,0.0,0.0,0.0001
1368538303568109941,12886,1368538303568109941,imu,0.000447793359361,-0.0166381256644,-0.132285480674,0.991071906502,0.0001,0.0,0.0,0.0,0.0001,0.0,0.0,0.0,0.0001,-0.000720754847862,0.0215198267251,-0.0029454678297,0.0001,0.0,0.0,0.0,0.0001,0.0,0.0,0.0,0.0001,0.357364982367,0.0296994727105,9.82131481171,0.0001,0.0,0.0,0.0,0.0001,0.0,0.0,0.0,0.0001
1368538303578114584,12887,1368538303578114584,imu,0.000491986604051,-0.0166153584118,-0.132256482508,0.991076137665,0.0001,0.0,0.0,0.0,0.0001,0.0,0.0,0.0,0.0001,0.00418678671122,0.0133062759414,0.00633025309071,0.0001,0.0,0.0,0.0,0.0001,0.0,0.0,0.0,0.0001,0.313274800777,0.0584926120937,9.83384227753,0.0001,0.0,0.0,0.0,0.0001,0.0,0.0,0.0,0.0001
1368538303587984859,12888,1368538303587984859,imu,0.000453681053743,-0.0165620987888,-0.132231541759,0.991080375359,0.0001,0.0,0.0,0.0,0.0001,0.0,0.0,0.0,0.0001,-0.012491681613,0.0175816677511,0.00563111761585,0.0001,0.0,0.0,0.0,0.0001,0.0,0.0,0.0,0.0001,0.30830514431,0.0826622992754,9.82891178131,0.0001,0.0,0.0,0.0,0.0001,0.0,0.0,0.0,0.0001
1368538303598003582,12889,1368538303598003582,imu,0.000442346392082,-0.0165363643096,-0.132210087967,0.991083672363,0.0001,0.0,0.0,0.0,0.0001,0.0,0.0,0.0,0.0001,-0.00693198246881,0.0124264126644,0.00499506480992,0.0001,0.0,0.0,0.0,0.0001,0.0,0.0,0.0,0.0001,0.342641532421,0.0465538352728,9.82383060455,0.0001,0.0,0.0,0.0,0.0001,0.0,0.0,0.0,0.0001
1368538303608012753,12890,1368538303608012753,imu,0.000403838078437,-0.0165153546328,-0.132237193677,0.991080422864,0.0001,0.0,0.0,0.0,0.0001,0.0,0.0,0.0,0.0001,-0.0118525428697,0.0111544840038,-0.00494039943442,0.0001,0.0,0.0,0.0,0.0001,0.0,0.0,0.0,0.0001,0.347577720881,0.0296335872263,9.82872104645,0.0001,0.0,0.0,0.0,0.0001,0.0,0.0,0.0,0.0001
1368538303617993704,12891,1368538303617993704,imu,0.000381976727447,-0.0164536274949,-0.132211671391,0.99108486326,0.0001,0.0,0.0,0.0,0.0001,0.0,0.0,0.0,0.0001,-0.00992020685226,0.0193098299205,0.00586153753102,0.0001,0.0,0.0,0.0,0.0001,0.0,0.0,0.0,0.0001,0.337733626366,0.0440773926675,9.83361816406,0.0001,0.0,0.0,0.0,0.0001,0.0,0.0,0.0,0.0001
1368538303627992093,12892,1368538303627992093,imu,0.000342852180776,-0.0164566465897,-0.1321982384,0.991086619322,0.0001,0.0,0.0,0.0,0.0001,0.0,0.0,0.0,0.0001,-0.0112196095288,0.00639294879511,0.00280845118687,0.0001,0.0,0.0,0.0,0.0001,0.0,0.0,0.0,0.0001,0.303408682346,0.102053061128,9.81186771393,0.0001,0.0,0.0,0.0,0.0001,0.0,0.0,0.0,0.0001
1368538303637874393,12893,1368538303637874393,imu,0.000345929202321,-0.0164707705899,-0.132197846827,0.991086435859,0.0001,0.0,0.0,0.0,0.0001,0.0,0.0,0.0,0.0001,-0.00308985682204,0.00491134915501,0.000683370803017,0.0001,0.0,0.0,0.0,0.0001,0.0,0.0,0.0,0.0001,0.323135256767,0.0537795722485,9.81432247162,0.0001,0.0,0.0,0.0,0.0001,0.0,0.0,0.0,0.0001
1368538303647864277,12894,1368538303647864277,imu,0.000323682242707,-0.0164282251082,-0.132186898362,0.991088609838,0.0001,0.0,0.0,0.0,0.0001,0.0,0.0,0.0,0.0001,-0.00906864646822,0.0158748291433,0.00283725210465,0.0001,0.0,0.0,0.0,0.0001,0.0,0.0,0.0,0.0001,0.342610031366,0.0489487014711,9.82867336273,0.0001,0.0,0.0,0.0,0.0001,0.0,0.0,0.0,0.0001
1368538303657855259,12895,1368538303657855259,imu,0.00030595381796,-0.0164669635183,-0.132176219883,0.991089396776,0.0001,0.0,0.0,0.0,0.0001,0.0,0.0,0.0,0.0001,-0.00651953229681,-0.000499555142596,0.00281810993329,0.0001,0.0,0.0,0.0,0.0001,0.0,0.0,0.0,0.0001,0.325493067503,0.0537014827132,9.83371639252,0.0001,0.0,0.0,0.0,0.0001,0.0,0.0,0.0,0.0001
1368538303667866568,12896,1368538303667866568,imu,0.000266473836125,-0.0164416788553,-0.132175896783,0.99108987105,0.0001,0.0,0.0,0.0,0.0001,0.0,0.0,0.0,0.0001,-0.0120726218447,0.0119903758168,0.000446630845545,0.0001,0.0,0.0,0.0,0.0001,0.0,0.0,0.0,0.0001,0.313133627176,0.0801977142692,9.84343242645,0.0001,0.0,0.0,0.0,0.0001,0.0,0.0,0.0,0.0001
1368538303677765981,12897,1368538303677765981,imu,0.000306787243119,-0.0165162188231,-0.132174744057,0.991088773739,0.0001,0.0,0.0,0.0,0.0001,0.0,0.0,0.0,0.0001,0.0058780349791,-0.00606688763946,0.000690597866196,0.0001,0.0,0.0,0.0,0.0001,0.0,0.0,0.0,0.0001,0.332808643579,0.0585811585188,9.82874107361,0.0001,0.0,0.0,0.0,0.0001,0.0,0.0,0.0,0.0001
1368538303687733388,12898,1368538303687733388,imu,0.000283301014582,-0.0165626274017,-0.132158646658,0.991090152926,0.0001,0.0,0.0,0.0,0.0001,0.0,0.0,0.0,0.0001,-0.00694389780983,-0.00179207907058,0.00389557261951,0.0001,0.0,0.0,0.0,0.0001,0.0,0.0,0.0,0.0001,0.337841331959,0.0296217352152,9.82398700714,0.0001,0.0,0.0,0.0,0.0001,0.0,0.0,0.0,0.0001
1368538303697742950,12899,1368538303697742950,imu,0.000270355378257,-0.0165672424189,-0.132159653012,0.991089945213,0.0001,0.0,0.0,0.0,0.0001,0.0,0.0,0.0,0.0001,-0.00651541026309,0.0064005702734,0.000457968621049,0.0001,0.0,0.0,0.0,0.0001,0.0,0.0,0.0,0.0001,0.322990864515,0.0584828518331,9.84343242645,0.0001,0.0,0.0,0.0,0.0001,0.0,0.0,0.0,0.0001
1368538303707761531,12900,1368538303707761531,imu,0.000259781560646,-0.0165411181373,-0.132201432706,0.991084812271,0.0001,0.0,0.0,0.0,0.0001,0.0,0.0,0.0,0.0001,-0.00651192385703,0.0128989564255,-0.00837325304747,0.0001,0.0,0.0,0.0,0.0001,0.0,0.0,0.0,0.0001,0.30340641737,0.0826239585876,9.83382892609,0.0001,0.0,0.0,0.0,0.0001,0.0,0.0,0.0,0.0001
1368538303717741226,12901,1368538303717741226,imu,0.000274260586042,-0.0165535130034,-0.132220069704,0.991082115244,0.0001,0.0,0.0,0.0,0.0001,0.0,0.0,0.0,0.0001,-0.000952164118644,0.00557290716097,-0.00319151952863,0.0001,0.0,0.0,0.0,0.0001,0.0,0.0,0.0,0.0001,0.335321992636,0.0513833090663,9.81903934479,0.0001,0.0,0.0,0.0,0.0001,0.0,0.0,0.0,0.0001
1368538303727727849,12902,1368538303727727849,imu,0.000257928930546,-0.0165597511846,-0.132181925254,0.991087103513,0.0001,0.0,0.0,0.0,0.0001,0.0,0.0,0.0,0.0001,-0.00651152897626,0.0063727949746,0.0084344279021,0.0001,0.0,0.0,0.0,0.0001,0.0,0.0,0.0,0.0001,0.36456862092,0.03446027264,9.8430480957,0.0001,0.0,0.0,0.0,0.0001,0.0,0.0,0.0,0.0001
1368538303737605068,12903,1368538303737605068,imu,0.000256562061917,-0.016591979616,-0.132190173365,0.991085464758,0.0001,0.0,0.0,0.0,0.0001,0.0,0.0,0.0,0.0001,-0.00352666946128,0.00124335091095,-0.00105262862053,0.0001,0.0,0.0,0.0,0.0001,0.0,0.0,0.0,0.0001,0.318097352982,0.0705917477608,9.83371353149,0.0001,0.0,0.0,0.0,0.0001,0.0,0.0,0.0,0.0001
1368538303747605361,12904,1368538303747605361,imu,0.000256453388659,-0.0165773248051,-0.132177806013,0.991087359485,0.0001,0.0,0.0,0.0,0.0001,0.0,0.0,0.0,0.0001,-0.00394461117685,0.0109296469018,0.00284510478377,0.0001,0.0,0.0,0.0,0.0001,0.0,0.0,0.0,0.0001,0.303426772356,0.082645572722,9.82897281647,0.0001,0.0,0.0,0.0,0.0001,0.0,0.0,0.0,0.0001
1368538303757596542,12905,1368538303757596542,imu,0.000249422998931,-0.0165871131515,-0.132175484682,0.991087507092,0.0001,0.0,0.0,0.0,0.0001,0.0,0.0,0.0,0.0001,-0.00523090921342,0.00554327201098,0.00110778666567,0.0001,0.0,0.0,0.0,0.0001,0.0,0.0,0.0,0.0001,0.327932238579,0.0537098497152,9.83368587494,0.0001,0.0,0.0,0.0,0.0001,0.0,0.0,0.0,0.0001
1368538303767508724,12906,1368538303767508724,imu,0.000241898226744,-0.0165333605489,-0.132180360532,0.991087756843,0.0001,0.0,0.0,0.0,0.0001,0.0,0.0,0.0,0.0001,-0.00649833492935,0.0184782426804,-0.000382109486964,0.0001,0.0,0.0,0.0,0.0001,0.0,0.0,0.0,0.0001,0.35489526391,0.0296586863697,9.82862949371,0.0001,0.0,0.0,0.0,0.0001,0.0,0.0,0.0,0.0001
1368538303777486498,12907,1368538303777486498,imu,0.000259410295498,-0.0164836595439,-0.132139121783,0.991094079373,0.0001,0.0,0.0,0.0,0.0001,0.0,0.0,0.0,0.0001,-0.00179736374412,0.0180235765874,0.00890182889998,0.0001,0.0,0.0,0.0,0.0001,0.0,0.0,0.0,0.0001,0.327865242958,0.0682087391615,9.83360481262,0.0001,0.0,0.0,0.0,0.0001,0.0,0.0,0.0,0.0001
1368538303788540842,12908,1368538303788540842,imu,0.000327275073583,-0.0164657246294,-0.132162567554,0.99109123119,0.0001,0.0,0.0,0.0,0.0001,0.0,0.0,0.0,0.0001,0.00931569095701,0.0133575480431,-0.00487024569884,0.0001,0.0,0.0,0.0,0.0001,0.0,0.0,0.0,0.0001,0.308325499296,0.0826839134097,9.82405567169,0.0001,0.0,0.0,0.0,0.0001,0.0,0.0,0.0,0.0001
1368538303798550032,12909,1368538303798550032,imu,0.00034236641261,-0.016452565284,-0.132132049233,0.991095513786,0.0001,0.0,0.0,0.0,0.0001,0.0,0.0,0.0,0.0001,-0.00137513037771,0.010708315298,0.00673372810706,0.0001,0.0,0.0,0.0,0.0001,0.0,0.0,0.0,0.0001,0.332806646824,0.0634357333183,9.82385826111,0.0001,0.0,0.0,0.0,0.0001,0.0,0.0,0.0,0.0001
1368538303808372611,12910,1368538303808372611,imu,0.000329094211604,-0.0165066895782,-0.132146948248,0.991092631879,0.0001,0.0,0.0,0.0,0.0001,0.0,0.0,0.0,0.0001,-0.00480989646167,-0.00306646130048,-0.00214284146205,0.0001,0.0,0.0,0.0,0.0001,0.0,0.0,0.0,0.0001,0.36707085371,0.0296789053828,9.83333301544,0.0001,0.0,0.0,0.0,0.0001,0.0,0.0,0.0,0.0001
1368538303818380534,12911,1368538303818380534,imu,0.000320602278844,-0.0165294227186,-0.132164970226,0.991089852659,0.0001,0.0,0.0,0.0,0.0001,0.0,0.0,0.0,0.0001,-0.00523491762578,0.00297000654973,-0.00299599883147,0.0001,0.0,0.0,0.0,0.0001,0.0,0.0,0.0,0.0001,0.332788288593,0.0585595443845,9.83359718323,0.0001,0.0,0.0,0.0,0.0001,0.0,0.0,0.0,0.0001
1368538303828409226,12912,1368538303828409226,imu,0.000332495044103,-0.0165176148506,-0.132114512192,0.991096773032,0.0001,0.0,0.0,0.0,0.0001,0.0,0.0,0.0,0.0001,-0.00137490045745,0.0107001923025,0.0101869916543,0.0001,0.0,0.0,0.0,0.0001,0.0,0.0,0.0,0.0001,0.298611432314,0.0778391063213,9.81934833527,0.0001,0.0,0.0,0.0,0.0001,0.0,0.0,0.0,0.0001
1368538303838421809,12913,1368538303838421809,imu,0.000342662649621,-0.0164756974021,-0.132075533403,0.991102662419,0.0001,0.0,0.0,0.0,0.0001,0.0,0.0,0.0,0.0001,-0.00307865953073,0.0163048617542,0.00846523698419,0.0001,0.0,0.0,0.0,0.0001,0.0,0.0,0.0,0.0001,0.327970951796,0.0586076527834,9.81908988953,0.0001,0.0,0.0,0.0,0.0001,0.0,0.0,0.0,0.0001
1368538303848385878,12914,1368538303848385878,imu,0.000374830006646,-0.016507764255,-0.132046821464,0.991105942956,0.0001,0.0,0.0,0.0,0.0001,0.0,0.0,0.0,0.0001,0.00375036196783,0.00252846744843,0.00630685780197,0.0001,0.0,0.0,0.0,0.0001,0.0,0.0,0.0,0.0001,0.349951893091,0.0392862632871,9.83349227905,0.0001,0.0,0.0,0.0,0.0001,0.0,0.0,0.0,0.0001
1368538303858235734,12915,1368538303858235734,imu,0.000355154967274,-0.0165029515365,-0.132074714618,0.991102313696,0.0001,0.0,0.0,0.0,0.0001,0.0,0.0,0.0,0.0001,-0.00822457764298,0.0081432890147,-0.00493945367634,0.0001,0.0,0.0,0.0,0.0001,0.0,0.0,0.0,0.0001,0.332763969898,0.0682470798492,9.82868671417,0.0001,0.0,0.0,0.0,0.0001,0.0,0.0,0.0,0.0001
1368538303868263152,12916,1368538303868263152,imu,0.000349265608709,-0.0164883856763,-0.13210065918,0.991099100492,0.0001,0.0,0.0,0.0,0.0001,0.0,0.0,0.0,0.0001,-0.00523029686883,0.0107374601066,-0.00535670807585,0.0001,0.0,0.0,0.0,0.0001,0.0,0.0,0.0,0.0001,0.313161194324,0.0875119939446,9.8288230896,0.0001,0.0,0.0,0.0,0.0001,0.0,0.0,0.0,0.0001
1368538303878263277,12917,1368538303878263277,imu,0.000371000829212,-0.0164609524124,-0.132089256396,0.991101068382,0.0001,0.0,0.0,0.0,0.0001,0.0,0.0,0.0,0.0001,-0.000517742475495,0.0137409754097,0.00285949208774,0.0001,0.0,0.0,0.0,0.0001,0.0,0.0,0.0,0.0001,0.332794487476,0.068279504776,9.82140254974,0.0001,0.0,0.0,0.0,0.0001,0.0,0.0,0.0,0.0001
1368538303888231210,12918,1368538303888231210,imu,0.000328359885138,-0.0165350237751,-0.132120371587,0.991095703038,0.0001,0.0,0.0,0.0,0.0001,0.0,0.0,0.0,0.0001,-0.0101607125252,-0.00780601566657,-0.00540179386735,0.0001,0.0,0.0,0.0,0.0001,0.0,0.0,0.0,0.0001,0.352444916964,0.0320667997003,9.82864665985,0.0001,0.0,0.0,0.0,0.0001,0.0,0.0,0.0,0.0001
1368538303898188339,12919,1368538303898188339,imu,0.000352558964323,-0.0165189639087,-0.132094998027,0.991099344682,0.0001,0.0,0.0,0.0,0.0001,0.0,0.0,0.0,0.0001,0.000335599848768,0.0115761738271,0.0056636761874,0.0001,0.0,0.0,0.0,0.0001,0.0,0.0,0.0,0.0001,0.327907919884,0.06339738518,9.82877540588,0.0001,0.0,0.0,0.0,0.0001,0.0,0.0,0.0,0.0001
1368538303908123995,12920,1368538303908123995,imu,0.00036728549185,-0.0165814659206,-0.132039056274,0.991105750012,0.0001,0.0,0.0,0.0,0.0001,0.0,0.0,0.0,0.0001,0.00117459928151,-0.00395495537668,0.0114585431293,0.0001,0.0,0.0,0.0,0.0001,0.0,0.0,0.0,0.0001,0.296071767807,0.0995790660381,9.81925678253,0.0001,0.0,0.0,0.0,0.0001,0.0,0.0,0.0,0.0001
1368538303918116861,12921,1368538303918116861,imu,0.000370681767439,-0.01657777001,-0.132021570652,0.991108139922,0.0001,0.0,0.0,0.0,0.0001,0.0,0.0,0.0,0.0001,-0.00351006397977,0.00856751017272,0.00413883151487,0.0001,0.0,0.0,0.0,0.0001,0.0,0.0,0.0,0.0001,0.337877064943,0.0418014004827,9.80206680298,0.0001,0.0,0.0,0.0,0.0001,0.0,0.0,0.0,0.0001
1368538303928116043,12922,1368538303928116043,imu,0.000356316478509,-0.0165437063566,-0.1320365108,0.991106724139,0.0001,0.0,0.0,0.0,0.0001,0.0,0.0,0.0,0.0001,-0.00735725229606,0.0143901761621,-0.00212031207047,0.0001,0.0,0.0,0.0,0.0001,0.0,0.0,0.0,0.0001,0.364670366049,0.0345683395863,9.81876754761,0.0001,0.0,0.0,0.0,0.0001,0.0,0.0,0.0,0.0001
1368538303938119677,12923,1368538303938119677,imu,0.000396870419282,-0.0165688927752,-0.132031096515,0.991107009278,0.0001,0.0,0.0,0.0,0.0001,0.0,0.0,0.0,0.0001,0.00460458127782,0.00383938802406,0.00156791019253,0.0001,0.0,0.0,0.0,0.0001,0.0,0.0,0.0,0.0001,0.332810610533,0.0537265837193,9.83362483978,0.0001,0.0,0.0,0.0,0.0001,0.0,0.0,0.0,0.0001
1368538303947988954,12924,1368538303947988954,imu,0.000403463945321,-0.0165997318077,-0.132005662089,0.991109878519,0.0001,0.0,0.0,0.0,0.0001,0.0,0.0,0.0,0.0001,-0.00138631928712,0.00209105177782,0.00499157328159,0.0001,0.0,0.0,0.0,0.0001,0.0,0.0,0.0,0.0001,0.322962582111,0.0778795406222,9.82875537872,0.0001,0.0,0.0,0.0,0.0001,0.0,0.0,0.0,0.0001
1368538303957989477,12925,1368538303957989477,imu,0.000378832639182,-0.0165794618413,-0.131995141171,0.991111628747,0.0001,0.0,0.0,0.0,0.0001,0.0,0.0,0.0,0.0001,-0.00949663575739,0.0111405579373,0.00283211795613,0.0001,0.0,0.0,0.0,0.0001,0.0,0.0,0.0,0.0001,0.332981318235,0.034481190145,9.81430912018,0.0001,0.0,0.0,0.0,0.0001,0.0,0.0,0.0,0.0001
1368538303967987204,12926,1368538303967987204,imu,0.00037549419718,-0.016590374826,-0.131994146106,0.991111579925,0.0001,0.0,0.0,0.0,0.0001,0.0,0.0,0.0,0.0001,-0.00394305260852,0.00576999783516,0.000683617137838,0.0001,0.0,0.0,0.0,0.0001,0.0,0.0,0.0,0.0001,0.337839335203,0.0344763100147,9.81910419464,0.0001,0.0,0.0,0.0,0.0001,0.0,0.0,0.0,0.0001
1368538303977994967,12927,1368538303977994967,imu,0.000409826081278,-0.0165669613771,-0.132008129014,0.991110095654,0.0001,0.0,0.0,0.0,0.0001,0.0,0.0,0.0,0.0001,0.00204319995828,0.0133219938725,-0.00230795424432,0.0001,0.0,0.0,0.0,0.0001,0.0,0.0,0.0,0.0001,0.337583273649,0.0633443966508,9.84807777405,0.0001,0.0,0.0,0.0,0.0001,0.0,0.0,0.0,0.0001
1368538303987856761,12928,1368538303987856761,imu,0.000409690845687,-0.0165665446177,-0.131977927986,0.991114124749,0.0001,0.0,0.0,0.0,0.0001,0.0,0.0,0.0,0.0001,-0.00351992249489,0.00811465736479,0.00628993567079,0.0001,0.0,0.0,0.0,0.0001,0.0,0.0,0.0,0.0001,0.313163161278,0.0826574191451,9.83370685577,0.0001,0.0,0.0,0.0,0.0001,0.0,0.0,0.0,0.0001
1368538303997867065,12929,1368538303997867065,imu,0.000425496526346,-0.016618824947,-0.132000794339,0.991110197659,0.0001,0.0,0.0,0.0,0.0001,0.0,0.0,0.0,0.0001,0.000323653686792,-0.00217821495607,-0.00406483700499,0.0001,0.0,0.0,0.0,0.0001,0.0,0.0,0.0,0.0001,0.337770372629,0.0538297705352,9.81413936615,0.0001,0.0,0.0,0.0,0.0001,0.0,0.0,0.0,0.0001
1368538304007858597,12930,1368538304007858597,imu,0.00037570485345,-0.0166225599056,-0.132006398406,0.991109408758,0.0001,0.0,0.0,0.0,0.0001,0.0,0.0,0.0,0.0001,-0.0133533924818,0.0059647471644,-0.000211296428461,0.0001,0.0,0.0,0.0,0.0001,0.0,0.0,0.0,0.0001,0.345136553049,0.0344797968864,9.82386779785,0.0001,0.0,0.0,0.0,0.0001,0.0,0.0,0.0,0.0001
1368538304017896104,12931,1368538304017896104,imu,0.000365823679996,-0.0166542927771,-0.132014797779,0.991107760979,0.0001,0.0,0.0,0.0,0.0001,0.0,0.0,0.0,0.0001,-0.0052349390462,0.00124061002862,-0.00105539930519,0.0001,0.0,0.0,0.0,0.0001,0.0,0.0,0.0,0.0001,0.327954560518,0.04887688905,9.83371353149,0.0001,0.0,0.0,0.0,0.0001,0.0,0.0,0.0,0.0001
1368538304027873188,12932,1368538304027873188,imu,0.000372254679628,-0.0166740810757,-0.132021189317,0.991106574501,0.0001,0.0,0.0,0.0,0.0001,0.0,0.0,0.0,0.0001,-0.00181764503941,0.00426068017259,-0.00147583801299,0.0001,0.0,0.0,0.0,0.0001,0.0,0.0,0.0,0.0001,0.303298741579,0.0970796123147,9.84345912933,0.0001,0.0,0.0,0.0,0.0001,0.0,0.0,0.0,0.0001
1368538304037750400,12933,1368538304037750400,imu,0.000371685248271,-0.0166333185531,-0.131993120082,0.991110998231,0.0001,0.0,0.0,0.0,0.0001,0.0,0.0,0.0,0.0001,-0.00522028561682,0.0158714540303,0.00629897741601,0.0001,0.0,0.0,0.0,0.0001,0.0,0.0,0.0,0.0001,0.332786291838,0.063414119184,9.82871437073,0.0001,0.0,0.0,0.0,0.0001,0.0,0.0,0.0,0.0001
1368538304047732355,12934,1368538304047732355,imu,0.000379097575319,-0.0167055815712,-0.131970429377,0.991112801653,0.0001,0.0,0.0,0.0,0.0001,0.0,0.0,0.0,0.0001,-0.000106990490167,-0.00609759707004,0.00541639747098,0.0001,0.0,0.0,0.0,0.0001,0.0,0.0,0.0,0.0001,0.352413415909,0.0344616696239,9.83348846436,0.0001,0.0,0.0,0.0,0.0001,0.0,0.0,0.0,0.0001
1368538304057727284,12935,1368538304057727284,imu,0.000374765017488,-0.0166856421224,-0.132019379235,0.991106620099,0.0001,0.0,0.0,0.0,0.0001,0.0,0.0,0.0,0.0001,-0.00565217528492,0.0116188591346,-0.00923445541412,0.0001,0.0,0.0,0.0,0.0001,0.0,0.0,0.0,0.0001,0.327991306782,0.0586292669177,9.81423377991,0.0001,0.0,0.0,0.0,0.0001,0.0,0.0,0.0,0.0001
1368538304067733807,12936,1368538304067733807,imu,0.000380045394778,-0.0166619818305,-0.13199342508,0.991110472986,0.0001,0.0,0.0,0.0,0.0001,0.0,0.0,0.0,0.0001,-0.00308746262453,0.0128618124872,0.00500752730295,0.0001,0.0,0.0,0.0,0.0001,0.0,0.0,0.0,0.0001,0.308295965195,0.0802242085338,9.83378124237,0.0001,0.0,0.0,0.0,0.0001,0.0,0.0,0.0,0.0001
1368538304077740670,12937,1368538304077740670,imu,0.000370242123412,-0.016706894927,-0.131971889087,0.991112588495,0.0001,0.0,0.0,0.0,0.0001,0.0,0.0,0.0,0.0001,-0.00480378000066,-0.00135254825,0.00497973710299,0.0001,0.0,0.0,0.0,0.0001,0.0,0.0,0.0,0.0001,0.325637459755,0.0489982031286,9.80460643768,0.0001,0.0,0.0,0.0,0.0001,0.0,0.0,0.0,0.0001
1368538304087616075,12938,1368538304087616075,imu,0.0003568651157,-0.0166917188959,-0.131938314671,0.991117319135,0.0001,0.0,0.0,0.0,0.0001,0.0,0.0,0.0,0.0001,-0.00650387397036,0.010696016252,0.00758453691378,0.0001,0.0,0.0,0.0,0.0001,0.0,0.0,0.0,0.0001,0.337818980217,0.0344546958804,9.82396030426,0.0001,0.0,0.0,0.0,0.0001,0.0,0.0,0.0,0.0001
1368538304097617632,12939,1368538304097617632,imu,0.000350385257647,-0.016695832511,-0.131923150506,0.991119270707,0.0001,0.0,0.0,0.0,0.0001,0.0,0.0,0.0,0.0001,-0.00523018091917,0.00682764453813,0.00369748729281,0.0001,0.0,0.0,0.0,0.0001,0.0,0.0,0.0,0.0001,0.318130850792,0.0633423104882,9.83375358582,0.0001,0.0,0.0,0.0,0.0001,0.0,0.0,0.0,0.0001
1368538304107617823,12940,1368538304107617823,imu,0.000322994558984,-0.016655001355,-0.131874198491,0.991126481523,0.0001,0.0,0.0,0.0,0.0001,0.0,0.0,0.0,0.0001,-0.00992643926293,0.015418285504,0.0101668564603,0.0001,0.0,0.0,0.0,0.0001,0.0,0.0,0.0,0.0001,0.293670028448,0.0826121047139,9.82909488678,0.0001,0.0,0.0,0.0,0.0001,0.0,0.0,0.0,0.0001
1368538304117488933,12941,1368538304117488933,imu,0.000307952207615,-0.0166448110211,-0.131872041352,0.991126944514,0.0001,0.0,0.0,0.0,0.0001,0.0,0.0,0.0,0.0001,-0.0073621366173,0.00942417792976,0.00110891286749,0.0001,0.0,0.0,0.0,0.0001,0.0,0.0,0.0,0.0001,0.33291631937,0.0441255010664,9.81911087036,0.0001,0.0,0.0,0.0,0.0001,0.0,0.0,0.0,0.0001
1368538304127484354,12942,1368538304127484354,imu,0.000304615158377,-0.0166252637873,-0.131886130653,0.991125398905,0.0001,0.0,0.0,0.0,0.0001,0.0,0.0,0.0,0.0001,-0.00479624420404,0.0118018472567,-0.002328698989,0.0001,0.0,0.0,0.0,0.0001,0.0,0.0,0.0,0.0001,0.357295721769,0.0247692503035,9.84319400787,0.0001,0.0,0.0,0.0,0.0001,0.0,0.0,0.0,0.0001
1368538304138549811,12943,1368538304138549811,imu,0.000312561719644,-0.0166900184669,-0.131866390349,0.991126934699,0.0001,0.0,0.0,0.0,0.0001,0.0,0.0,0.0,0.0001,-0.000750541861635,-0.00480243563652,0.00455024838448,0.0001,0.0,0.0,0.0,0.0001,0.0,0.0,0.0,0.0001,0.332763969898,0.0682470798492,9.82868671417,0.0001,0.0,0.0,0.0,0.0001,0.0,0.0,0.0,0.0001
1368538304148488237,12944,1368538304148488237,imu,0.00032580816737,-0.016736843484,-0.131852697375,0.991127962533,0.0001,0.0,0.0,0.0,0.0001,0.0,0.0,0.0,0.0001,0.000322024163324,-0.000908826070372,0.00283579761162,0.0001,0.0,0.0,0.0,0.0001,0.0,0.0,0.0,0.0001,0.303443163633,0.0923763364553,9.81435012817,0.0001,0.0,0.0,0.0,0.0001,0.0,0.0,0.0,0.0001
1368538304158358753,12945,1368538304158358753,imu,0.000343439622332,-0.0167678008512,-0.131874467716,0.991124536912,0.0001,0.0,0.0,0.0,0.0001,0.0,0.0,0.0,0.0001,0.000114232301712,0.00213050050661,-0.00384288025089,0.0001,0.0,0.0,0.0,0.0001,0.0,0.0,0.0,0.0001,0.34509909153,0.0514383874834,9.81406116486,0.0001,0.0,0.0,0.0,0.0001,0.0,0.0,0.0,0.0001
1368538304168364461,12946,1368538304168364461,imu,0.000340619113165,-0.0167439679574,-0.13188799466,0.991123140876,0.0001,0.0,0.0,0.0,0.0001,0.0,0.0,0.0,0.0001,-0.00479493662715,0.0126671781763,-0.00189677835442,0.0001,0.0,0.0,0.0,0.0001,0.0,0.0,0.0,0.0001,0.345083683729,0.0392803363502,9.8311252594,0.0001,0.0,0.0,0.0,0.0001,0.0,0.0,0.0,0.0001
1368538304178367168,12947,1368538304178367168,imu,0.000385006690653,-0.0167631387713,-0.131935945924,0.991116418551,0.0001,0.0,0.0,0.0,0.0001,0.0,0.0,0.0,0.0001,0.00503035541624,0.00516917137429,-0.00921111088246,0.0001,0.0,0.0,0.0,0.0001,0.0,0.0,0.0,0.0001,0.325448393822,0.0633674040437,9.83366203308,0.0001,0.0,0.0,0.0,0.0001,0.0,0.0,0.0,0.0001
1368538304188358994,12948,1368538304188358994,imu,0.000403477969516,-0.0167691100928,-0.131971636797,0.99111155842,0.0001,0.0,0.0,0.0,0.0001,0.0,0.0,0.0,0.0001,0.000110187480459,0.0073031890206,-0.00728238467127,0.0001,0.0,0.0,0.0,0.0001,0.0,0.0,0.0,0.0001,0.293586671352,0.0873802229762,9.84363651276,0.0001,0.0,0.0,0.0,0.0001,0.0,0.0,0.0,0.0001
1368538304198273609,12949,1368538304198273609,imu,0.000369806429231,-0.0167633681028,-0.131918548697,0.991118736198,0.0001,0.0,0.0,0.0,0.0001,0.0,0.0,0.0,0.0001,-0.0107827242464,0.00809084065259,0.0114457225427,0.0001,0.0,0.0,0.0,0.0001,0.0,0.0,0.0,0.0001,0.328035950661,0.048963341862,9.81428813934,0.0001,0.0,0.0,0.0,0.0001,0.0,0.0,0.0,0.0001
1368538304208236346,12950,1368538304208236346,imu,0.000368866818488,-0.0166920142325,-0.131921620718,0.991119531936,0.0001,0.0,0.0,0.0,0.0001,0.0,0.0,0.0,0.0001,-0.00563955586404,0.0221448186785,0.000274266349152,0.0001,0.0,0.0,0.0,0.0001,0.0,0.0,0.0,0.0001,0.33778449893,0.0441314280033,9.82147789001,0.0001,0.0,0.0,0.0,0.0001,0.0,0.0,0.0,0.0001
1368538304218229485,12951,1368538304218229485,imu,0.000349666612928,-0.0166813646839,-0.131923838549,0.99111942299,0.0001,0.0,0.0,0.0,0.0001,0.0,0.0,0.0,0.0001,-0.00822004955262,0.00942345708609,0.000241593137616,0.0001,0.0,0.0,0.0,0.0001,0.0,0.0,0.0,0.0001,0.323071241379,0.0609965957701,9.82156562805,0.0001,0.0,0.0,0.0,0.0001,0.0,0.0,0.0,0.0001
1368538304228247406,12952,1368538304228247406,imu,0.000355259239229,-0.0166617543275,-0.131951385503,0.991116083815,0.0001,0.0,0.0,0.0,0.0001,0.0,0.0,0.0,0.0001,-0.00308919488452,0.0120402295142,-0.00556249497458,0.0001,0.0,0.0,0.0,0.0001,0.0,0.0,0.0,0.0001,0.308312356472,0.0899549722672,9.81915855408,0.0001,0.0,0.0,0.0,0.0001,0.0,0.0,0.0,0.0001
1368538304238241055,12953,1368538304238241055,imu,0.000379888520568,-0.0166154809605,-0.131960210001,0.991115676626,0.0001,0.0,0.0,0.0,0.0001,0.0,0.0,0.0,0.0001,-0.000510643702,0.0176385752857,-0.00122628628742,0.0001,0.0,0.0,0.0,0.0001,0.0,0.0,0.0,0.0001,0.337815016508,0.0441638492048,9.81419372559,0.0001,0.0,0.0,0.0,0.0001,0.0,0.0,0.0,0.0001
1368538304248118059,12954,1368538304248118059,imu,0.000399181633028,-0.0165869656812,-0.131966219221,0.991115346571,0.0001,0.0,0.0,0.0,0.0001,0.0,0.0,0.0,0.0001,-0.000514742627274,0.0141821056604,-0.000585578905884,0.0001,0.0,0.0,0.0,0.0001,0.0,0.0,0.0,0.0001,0.35489526391,0.0296586863697,9.82862949371,0.0001,0.0,0.0,0.0,0.0001,0.0,0.0,0.0,0.0001
1368538304258112763,12955,1368538304258112763,imu,0.000407716838547,-0.0166257175309,-0.13196143008,0.99111533146,0.0001,0.0,0.0,0.0,0.0001,0.0,0.0,0.0,0.0001,-0.00138706783764,0.000378095573978,0.00154236599337,0.0001,0.0,0.0,0.0,0.0001,0.0,0.0,0.0,0.0001,0.323031544685,0.0585260801017,9.83372020721,0.0001,0.0,0.0,0.0,0.0001,0.0,0.0,0.0,0.0001
1368538304268115548,12956,1368538304268115548,imu,0.00042762776169,-0.0166483901247,-0.131958714438,0.991115304051,0.0001,0.0,0.0,0.0,0.0001,0.0,0.0,0.0,0.0001,0.000965382205322,0.00404973933473,0.00047591648763,0.0001,0.0,0.0,0.0,0.0001,0.0,0.0,0.0,0.0001,0.30338409543,0.0874569192529,9.83380126953,0.0001,0.0,0.0,0.0,0.0001,0.0,0.0,0.0,0.0001
1368538304278114694,12957,1368538304278114694,imu,0.00044464803822,-0.0166445533862,-0.131985848445,0.991111747958,0.0001,0.0,0.0,0.0,0.0001,0.0,0.0,0.0,0.0001,-0.000948274158873,0.00902730971575,-0.00490925693884,0.0001,0.0,0.0,0.0,0.0001,0.0,0.0,0.0,0.0001,0.337794691324,0.0441422350705,9.81904983521,0.0001,0.0,0.0,0.0,0.0001,0.0,0.0,0.0,0.0001
1368538304288098887,12958,1368538304288098887,imu,0.000463376565003,-0.0166182084,-0.131975187583,0.991113601104,0.0001,0.0,0.0,0.0,0.0001,0.0,0.0,0.0,0.0001,-0.000511467515025,0.0137461628765,0.00286538410001,0.0001,0.0,0.0,0.0,0.0001,0.0,0.0,0.0,0.0001,0.35253944993,0.0248821992427,9.81411838531,0.0001,0.0,0.0,0.0,0.0001,0.0,0.0,0.0,0.0001
1368538304297996925,12959,1368538304297996925,imu,0.000456101182116,-0.0165852015011,-0.132001738434,0.991110621532,0.0001,0.0,0.0,0.0,0.0001,0.0,0.0,0.0,0.0001,-0.00650766119361,0.0141808735207,-0.00470215966925,0.0001,0.0,0.0,0.0,0.0001,0.0,0.0,0.0,0.0001,0.310813307762,0.0633172094822,9.83384609222,0.0001,0.0,0.0,0.0,0.0001,0.0,0.0,0.0,0.0001
1368538304308001934,12960,1368538304308001934,imu,0.000442265766727,-0.0165458620581,-0.131999994354,0.991111517611,0.0001,0.0,0.0,0.0,0.0001,0.0,0.0,0.0,0.0001,-0.00736239319667,0.0154544655234,0.000471765553812,0.0001,0.0,0.0,0.0,0.0001,0.0,0.0,0.0,0.0001,0.298550397158,0.0777742639184,9.83391666412,0.0001,0.0,0.0,0.0,0.0001,0.0,0.0,0.0,0.0001
1368538304317991130,12961,1368538304317991130,imu,0.000445559568173,-0.0164969130692,-0.132010323971,0.991110956302,0.0001,0.0,0.0,0.0,0.0001,0.0,0.0,0.0,0.0001,-0.00478839781135,0.0176289305091,-0.00145813042764,0.0001,0.0,0.0,0.0,0.0001,0.0,0.0,0.0,0.0001,0.342671066523,0.049013543874,9.81410503387,0.0001,0.0,0.0,0.0,0.0001,0.0,0.0,0.0,0.0001
1368538304327990007,12962,1368538304327990007,imu,0.000450689626819,-0.0164316416074,-0.13203179461,0.991109178267,0.0001,0.0,0.0,0.0,0.0001,0.0,0.0,0.0,0.0001,-0.00435656495392,0.0210859868675,-0.00403491873294,0.0001,0.0,0.0,0.0,0.0001,0.0,0.0,0.0,0.0001,0.345168054104,0.0320849269629,9.81902599335,0.0001,0.0,0.0,0.0,0.0001,0.0,0.0,0.0,0.0001
1368538304337863799,12963,1368538304337863799,imu,0.000413244835043,-0.0164164897799,-0.132075018867,0.991103686545,0.0001,0.0,0.0,0.0,0.0001,0.0,0.0,0.0,0.0001,-0.0120857739821,0.00984311103821,-0.00797271355987,0.0001,0.0,0.0,0.0,0.0001,0.0,0.0,0.0,0.0001,0.322629094124,0.096952021122,9.88692092896,0.0001,0.0,0.0,0.0,0.0001,0.0,0.0,0.0,0.0001
1368538304347863889,12964,1368538304347863889,imu,0.000384530493372,-0.0164323394144,-0.132021933138,0.991110508232,0.0001,0.0,0.0,0.0,0.0001,0.0,0.0,0.0,0.0001,-0.00869727693498,0.00414357380942,0.0105215143412,0.0001,0.0,0.0,0.0,0.0001,0.0,0.0,0.0,0.0001,0.402104705572,0.270987808704,9.93592262268,0.0001,0.0,0.0,0.0,0.0001,0.0,0.0,0.0,0.0001
1368538304357865566,12965,1368538304357865566,imu,0.000405777904532,-0.0164653722631,-0.13186981485,0.991130202744,0.0001,0.0,0.0,0.0,0.0001,0.0,0.0,0.0,0.0001,0.00115138490219,0.00196558446623,0.0312358103693,0.0001,0.0,0.0,0.0,0.0001,0.0,0.0,0.0,0.0001,0.477978974581,0.28366458416,9.85963630676,0.0001,0.0,0.0,0.0,0.0001,0.0,0.0,0.0,0.0001
1368538304367863449,12966,1368538304367863449,imu,0.000420803972608,-0.016524405697,-0.131681071124,0.991154308091,0.0001,0.0,0.0,0.0,0.0001,0.0,0.0,0.0,0.0001,0.00159840448759,-0.00318743078969,0.0389995053411,0.0001,0.0,0.0,0.0,0.0001,0.0,0.0,0.0,0.0001,0.49816635251,0.228595525026,9.7601518631,0.0001,0.0,0.0,0.0,0.0001,0.0,0.0,0.0,0.0001
1368538304377863765,12967,1368538304377863765,imu,0.000411280438568,-0.0165709990318,-0.13152533616,0.991174212128,0.0001,0.0,0.0,0.0,0.0001,0.0,0.0,0.0,0.0001,-0.00481806788594,-0.00145020417403,0.0320694036782,0.0001,0.0,0.0,0.0,0.0001,0.0,0.0,0.0,0.0001,0.517603933811,0.265006929636,9.73785114288,0.0001,0.0,0.0,0.0,0.0001,0.0,0.0,0.0,0.0001
1368538304387743446,12968,1368538304387743446,imu,0.000435919112916,-0.0165705466827,-0.131295488101,0.991204682072,0.0001,0.0,0.0,0.0,0.0001,0.0,0.0,0.0,0.0001,0.00204456946813,0.00887642242014,0.0463485755026,0.0001,0.0,0.0,0.0,0.0001,0.0,0.0,0.0,0.0001,0.503146708012,0.253004014492,9.70896530151,0.0001,0.0,0.0,0.0,0.0001,0.0,0.0,0.0,0.0001
1368538304397746575,12969,1368538304397746575,imu,0.000459818094266,-0.0165836754756,-0.131002203535,0.991243256191,0.0001,0.0,0.0,0.0,0.0001,0.0,0.0,0.0,0.0001,0.00119012594223,0.00622952822596,0.0597209148109,0.0001,0.0,0.0,0.0,0.0001,0.0,0.0,0.0,0.0001,0.527668058872,0.185231685638,9.75274562836,0.0001,0.0,0.0,0.0,0.0001,0.0,0.0,0.0,0.0001
1368538304407746481,12970,1368538304407746481,imu,0.000482135714588,-0.0164993551864,-0.130621830236,0.991294848312,0.0001,0.0,0.0,0.0,0.0001,0.0,0.0,0.0,0.0001,-9.32121038204e-05,0.0255294125527,0.0774128884077,0.0001,0.0,0.0,0.0,0.0001,0.0,0.0,0.0,0.0001,0.526945829391,0.284026414156,9.81531906128,0.0001,0.0,0.0,0.0,0.0001,0.0,0.0,0.0,0.0001
1368538304417739778,12971,1368538304417739778,imu,0.000472281165161,-0.0164690218372,-0.130192428648,0.991351844601,0.0001,0.0,0.0,0.0,0.0001,0.0,0.0,0.0,0.0001,-0.00651600630954,0.0140751898289,0.0873072892427,0.0001,0.0,0.0,0.0,0.0001,0.0,0.0,0.0,0.0001,0.400066792965,0.310259103775,9.79733467102,0.0001,0.0,0.0,0.0,0.0001,0.0,0.0,0.0,0.0001
1368538304427768505,12972,1368538304427768505,imu,0.000496717484827,-0.0164250193155,-0.129656780829,0.991422761085,0.0001,0.0,0.0,0.0,0.0001,0.0,0.0,0.0,0.0001,0.00181402184535,0.0176545456052,0.106313891709,0.0001,0.0,0.0,0.0,0.0001,0.0,0.0,0.0,0.0001,0.399590879679,0.329180300236,9.88949394226,0.0001,0.0,0.0,0.0,0.0001,0.0,0.0,0.0,0.0001
1368538304437739397,12973,1368538304437739397,imu,0.000532909193878,-0.0163617824914,-0.129002090485,0.991509187417,0.0001,0.0,0.0,0.0,0.0001,0.0,0.0,0.0,0.0001,0.00203638197854,0.0218990147114,0.132604166865,0.0001,0.0,0.0,0.0,0.0001,0.0,0.0,0.0,0.0001,0.418938666582,0.435918211937,9.81095218658,0.0001,0.0,0.0,0.0,0.0001,0.0,0.0,0.0,0.0001
1368538304447591799,12974,1368538304447591799,imu,0.00052952920989,-0.0162803549446,-0.128255494625,0.991607380842,0.0001,0.0,0.0,0.0,0.0001,0.0,0.0,0.0,0.0001,-0.00393824093044,0.0244773048908,0.15026012063,0.0001,0.0,0.0,0.0,0.0001,0.0,0.0,0.0,0.0001,0.267574876547,0.614953935146,9.64673233032,0.0001,0.0,0.0,0.0,0.0001,0.0,0.0,0.0,0.0001
1368538304457615105,12975,1368538304457615105,imu,0.00057384705768,-0.0161733475964,-0.127267514476,0.991736393043,0.0001,0.0,0.0,0.0,0.0001,0.0,0.0,0.0,0.0001,0.00242985109799,0.0307283774018,0.199810415506,0.0001,0.0,0.0,0.0,0.0001,0.0,0.0,0.0,0.0001,0.211666986346,1.03005874157,9.72276687622,0.0001,0.0,0.0,0.0,0.0001,0.0,0.0,0.0,0.0001
1368538304467613924,12976,1368538304467613924,imu,0.000574468348415,-0.0160765108326,-0.12599504581,0.991900430596,0.0001,0.0,0.0,0.0,0.0001,0.0,0.0,0.0,0.0001,-0.0018408751348,0.0279165357351,0.256325274706,0.0001,0.0,0.0,0.0,0.0001,0.0,0.0,0.0,0.0001,0.138555392623,0.923028707504,9.82626247406,0.0001,0.0,0.0,0.0,0.0001,0.0,0.0,0.0,0.0001
1368538304477490218,12977,1368538304477490218,imu,0.000643216065736,-0.0160153950282,-0.124509609485,0.992088932778,0.0001,0.0,0.0,0.0,0.0001,0.0,0.0,0.0,0.0001,0.00887754186988,0.0221959501505,0.299966543913,0.0001,0.0,0.0,0.0,0.0001,0.0,0.0,0.0,0.0001,0.11019616574,0.685918688774,9.87166690826,0.0001,0.0,0.0,0.0,0.0001,0.0,0.0,0.0,0.0001
1368538304488496884,12978,1368538304488496884,imu,0.000652276896622,-0.0159250699158,-0.122742784602,0.992310523733,0.0001,0.0,0.0,0.0,0.0001,0.0,0.0,0.0,0.0001,0.00158876809292,0.0271024126559,0.356008708477,0.0001,0.0,0.0,0.0,0.0001,0.0,0.0,0.0,0.0001,0.0506312437356,0.776906549931,10.0151414871,0.0001,0.0,0.0,0.0,0.0001,0.0,0.0,0.0,0.0001
1368538304498497708,12979,1368538304498497708,imu,0.000711422298225,-0.015901228972,-0.120803001187,0.992548880257,0.0001,0.0,0.0,0.0,0.0001,0.0,0.0,0.0,0.0001,0.00846125278622,0.0145129505545,0.391431212425,0.0001,0.0,0.0,0.0,0.0001,0.0,0.0,0.0,0.0001,0.11053147912,0.462867587805,10.0380268097,0.0001,0.0,0.0,0.0,0.0001,0.0,0.0,0.0,0.0001
1368538304508487048,12980,1368538304508487048,imu,0.000826216121459,-0.015912682446,-0.118735708574,0.992798033546,0.0001,0.0,0.0,0.0,0.0001,0.0,0.0,0.0,0.0001,0.0260290242732,0.00960608851165,0.416518270969,0.0001,0.0,0.0,0.0,0.0001,0.0,0.0,0.0,0.0001,-0.057073969394,0.497028797865,9.83598709106,0.0001,0.0,0.0,0.0,0.0001,0.0,0.0,0.0,0.0001
1368538304518365765,12981,1368538304518365765,imu,0.000880189677014,-0.0158952418144,-0.116456704743,0.993068176146,0.0001,0.0,0.0,0.0,0.0001,0.0,0.0,0.0,0.0001,0.00809745304286,0.0131013523787,0.459580510855,0.0001,0.0,0.0,0.0,0.0001,0.0,0.0,0.0,0.0001,0.15590596199,0.379586875439,9.78057479858,0.0001,0.0,0.0,0.0,0.0001,0.0,0.0,0.0,0.0001
1368538304528363576,12982,1368538304528363576,imu,0.000929614494081,-0.0158798346801,-0.114113996988,0.993340305413,0.0001,0.0,0.0,0.0,0.0001,0.0,0.0,0.0,0.0001,0.0132630057633,0.0135046960786,0.471335232258,0.0001,0.0,0.0,0.0,0.0001,0.0,0.0,0.0,0.0001,0.0644593536854,0.0284793637693,9.87354660034,0.0001,0.0,0.0,0.0,0.0001,0.0,0.0,0.0,0.0001
1368538304538361752,12983,1368538304538361752,imu,0.00104468192617,-0.015880256114,-0.111735910902,0.993610493262,0.0001,0.0,0.0,0.0,0.0001,0.0,0.0,0.0,0.0001,0.0209463108331,0.0108999758959,0.479072749615,0.0001,0.0,0.0,0.0,0.0001,0.0,0.0,0.0,0.0001,0.166393786669,0.15941798687,9.84967517853,0.0001,0.0,0.0,0.0,0.0001,0.0,0.0,0.0,0.0001
1368538304548341867,12984,1368538304548341867,imu,0.00103444768839,-0.0158375348768,-0.109248702479,0.993887731796,0.0001,0.0,0.0,0.0,0.0001,0.0,0.0,0.0,0.0001,0.00127243250608,0.0176790151745,0.500791311264,0.0001,0.0,0.0,0.0,0.0001,0.0,0.0,0.0,0.0001,0.0878913328052,0.260664075613,9.84522724152,0.0001,0.0,0.0,0.0,0.0001,0.0,0.0,0.0,0.0001
1368538304558361911,12985,1368538304558361911,imu,0.00106197822907,-0.0158804693063,-0.10674886011,0.994158621027,0.0001,0.0,0.0,0.0,0.0001,0.0,0.0,0.0,0.0001,0.00469830073416,0.000450046441983,0.5035815835,0.0001,0.0,0.0,0.0,0.0001,0.0,0.0,0.0,0.0001,0.225277602673,0.116273418069,9.8151922226,0.0001,0.0,0.0,0.0,0.0001,0.0,0.0,0.0,0.0001
1368538304568238595,12986,1368538304568238595,imu,0.00101742698992,-0.0158926947384,-0.104255515649,0.994423036013,0.0001,0.0,0.0,0.0,0.0001,0.0,0.0,0.0,0.0001,-0.0042885937728,0.00600934121758,0.502706825733,0.0001,0.0,0.0,0.0,0.0001,0.0,0.0,0.0,0.0001,0.190857306123,0.108582638204,9.88850402832,0.0001,0.0,0.0,0.0,0.0001,0.0,0.0,0.0,0.0001
1368538304578240661,12987,1368538304578240661,imu,0.00104227732537,-0.0159935490962,-0.101789124734,0.994676879258,0.0001,0.0,0.0,0.0,0.0001,0.0,0.0,0.0,0.0001,0.0050710728392,-0.0112209478393,0.496598273516,0.0001,0.0,0.0,0.0,0.0001,0.0,0.0,0.0,0.0001,0.301956504583,0.343344509602,9.89063549042,0.0001,0.0,0.0,0.0,0.0001,0.0,0.0,0.0,0.0001
1368538304588244316,12988,1368538304588244316,imu,0.00107286668758,-0.0160890102434,-0.0992883567995,0.994928045092,0.0001,0.0,0.0,0.0,0.0001,0.0,0.0,0.0,0.0001,0.0123618580401,-0.00903174374253,0.501819014549,0.0001,0.0,0.0,0.0,0.0001,0.0,0.0,0.0,0.0001,0.253636300564,0.304816097021,9.82347774506,0.0001,0.0,0.0,0.0,0.0001,0.0,0.0,0.0,0.0001
1368538304598244082,12989,1368538304598244082,imu,0.00108180049413,-0.0161316766888,-0.0968424738437,0.995168394783,0.0001,0.0,0.0,0.0,0.0001,0.0,0.0,0.0,0.0001,0.000390735833207,1.30265552798e-05,0.492298960686,0.0001,0.0,0.0,0.0,0.0001,0.0,0.0,0.0,0.0001,0.317040711641,0.290448278189,9.84218883514,0.0001,0.0,0.0,0.0,0.0001,0.0,0.0,0.0,0.0001
1368538304608122993,12990,1368538304608122993,imu,0.00111720045378,-0.0162727827101,-0.0943860474399,0.995402040612,0.0001,0.0,0.0,0.0,0.0001,0.0,0.0,0.0,0.0001,0.0140559831634,-0.0181001871824,0.493176609278,0.0001,0.0,0.0,0.0,0.0001,0.0,0.0,0.0,0.0001,0.431787014008,0.184105694294,9.93361663818,0.0001,0.0,0.0,0.0,0.0001,0.0,0.0,0.0,0.0001
1368538304618115183,12991,1368538304618115183,imu,0.00115941620542,-0.0163924748593,-0.0919318343103,0.995629690378,0.0001,0.0,0.0,0.0,0.0001,0.0,0.0,0.0,0.0001,0.00853896234185,-0.014586398378,0.493624091148,0.0001,0.0,0.0,0.0,0.0001,0.0,0.0,0.0,0.0001,0.391459256411,0.088039085269,9.76957035065,0.0001,0.0,0.0,0.0,0.0001,0.0,0.0,0.0,0.0001
1368538304628116818,12992,1368538304628116818,imu,0.00120900552971,-0.0164395086386,-0.0893973735365,0.995859623876,0.0001,0.0,0.0,0.0,0.0001,0.0,0.0,0.0,0.0001,0.0154032958671,0.000901927938685,0.508771002293,0.0001,0.0,0.0,0.0,0.0001,0.0,0.0,0.0,0.0001,0.391542613506,0.0832709670067,9.75502872467,0.0001,0.0,0.0,0.0,0.0001,0.0,0.0,0.0,0.0001
1368538304638116709,12993,1368538304638116709,imu,0.0012652275397,-0.0165466763643,-0.0868407837208,0.996083974865,0.0001,0.0,0.0,0.0,0.0001,0.0,0.0,0.0,0.0001,0.0115362005308,-0.0116592263803,0.513901472092,0.0001,0.0,0.0,0.0,0.0001,0.0,0.0,0.0,0.0001,0.518355131149,0.0205425079912,9.82906246185,0.0001,0.0,0.0,0.0,0.0001,0.0,0.0,0.0,0.0001
1368538304648112448,12994,1368538304648112448,imu,0.00128019561653,-0.0166362489056,-0.0842628718511,0.996303851618,0.0001,0.0,0.0,0.0,0.0001,0.0,0.0,0.0,0.0001,0.00942035205662,-0.0081906830892,0.517364859581,0.0001,0.0,0.0,0.0,0.0001,0.0,0.0,0.0,0.0001,0.499380290508,-0.0275190286338,9.75430870056,0.0001,0.0,0.0,0.0,0.0001,0.0,0.0,0.0,0.0001
1368538304657972681,12995,1368538304657972681,imu,0.00132034615825,-0.016636798544,-0.0816494672542,0.996521368621,0.0001,0.0,0.0,0.0,0.0001,0.0,0.0,0.0,0.0001,0.00687142694369,0.00947833992541,0.52512216568,0.0001,0.0,0.0,0.0,0.0001,0.0,0.0,0.0,0.0001,0.494261354208,0.113052397966,9.656457901,0.0001,0.0,0.0,0.0,0.0001,0.0,0.0,0.0,0.0001
1368538304667988204,12996,1368538304667988204,imu,0.00139019254333,-0.0165798346062,-0.0789034129225,0.996743411254,0.0001,0.0,0.0,0.0,0.0001,0.0,0.0,0.0,0.0001,0.0184448771179,0.0219659451395,0.549748301506,0.0001,0.0,0.0,0.0,0.0001,0.0,0.0,0.0,0.0001,0.479698508978,0.21021258831,9.53226470947,0.0001,0.0,0.0,0.0,0.0001,0.0,0.0,0.0,0.0001
1368538304677991466,12997,1368538304677991466,imu,0.00157723032685,-0.016565772875,-0.076041218724,0.996965807121,0.0001,0.0,0.0,0.0,0.0001,0.0,0.0,0.0,0.0001,0.0363398715854,0.0149334426969,0.574314177036,0.0001,0.0,0.0,0.0,0.0001,0.0,0.0,0.0,0.0001,0.453130990267,0.528358697891,9.69831562042,0.0001,0.0,0.0,0.0,0.0001,0.0,0.0,0.0,0.0001
1368538304688002868,12998,1368538304688002868,imu,0.00165200483112,-0.0165461935519,-0.0730326778272,0.997190915687,0.0001,0.0,0.0,0.0,0.0001,0.0,0.0,0.0,0.0001,0.0209240838885,0.0147499861196,0.603340864182,0.0001,0.0,0.0,0.0,0.0001,0.0,0.0,0.0,0.0001,0.567118108273,0.58633685112,9.78881931305,0.0001,0.0,0.0,0.0,0.0001,0.0,0.0,0.0,0.0001
1368538304698000900,12999,1368538304698000900,imu,0.00168771753444,-0.0164966082297,-0.069821799889,0.997421640926,0.0001,0.0,0.0,0.0,0.0001,0.0,0.0,0.0,0.0001,0.00594837917015,0.019964966923,0.644494891167,0.0001,0.0,0.0,0.0,0.0001,0.0,0.0,0.0,0.0001,0.324796319008,0.754597365856,9.80546474457,0.0001,0.0,0.0,0.0,0.0001,0.0,0.0,0.0,0.0001
1368538304707869784,13000,1368538304707869784,imu,0.00165031114492,-0.0164155232449,-0.0663789451927,0.997658079056,0.0001,0.0,0.0,0.0,0.0001,0.0,0.0,0.0,0.0001,-0.000910765258595,0.0256066899747,0.690153121948,0.0001,0.0,0.0,0.0,0.0001,0.0,0.0,0.0,0.0001,0.235760837793,1.03711092472,9.78555107117,0.0001,0.0,0.0,0.0,0.0001,0.0,0.0,0.0,0.0001
1368538304717865069,13001,1368538304717865069,imu,0.00166523369309,-0.0163034959511,-0.0626764427685,0.997899336876,0.0001,0.0,0.0,0.0,0.0001,0.0,0.0,0.0,0.0001,0.00121395208407,0.0322274677455,0.742822408676,0.0001,0.0,0.0,0.0,0.0001,0.0,0.0,0.0,0.0001,0.196102768183,0.912461280823,10.0732479095,0.0001,0.0,0.0,0.0,0.0001,0.0,0.0,0.0,0.0001
1368538304727866506,13002,1368538304727866506,imu,0.00161679554435,-0.0162230651978,-0.0588053860883,0.998136325706,0.0001,0.0,0.0,0.0,0.0001,0.0,0.0,0.0,0.0001,-0.00172921165358,0.025518015027,0.775617420673,0.0001,0.0,0.0,0.0,0.0001,0.0,0.0,0.0,0.0001,0.192783072591,0.734403073788,9.89949226379,0.0001,0.0,0.0,0.0,0.0001,0.0,0.0,0.0,0.0001
1368538304737863262,13003,1368538304737863262,imu,0.00167487293859,-0.0161815537362,-0.0547125977613,0.998369612802,0.0001,0.0,0.0,0.0,0.0001,0.0,0.0,0.0,0.0001,0.011103073135,0.0186859872192,0.820545732975,0.0001,0.0,0.0,0.0,0.0001,0.0,0.0,0.0,0.0001,0.105098128319,0.600676715374,10.0178890228,0.0001,0.0,0.0,0.0,0.0001,0.0,0.0,0.0,0.0001
1368538304747868868,13004,1368538304747868868,imu,0.00181237732113,-0.016220734307,-0.0505031837005,0.998590522438,0.0001,0.0,0.0,0.0,0.0001,0.0,0.0,0.0,0.0001,0.0378429330885,0.00381728215143,0.842632234097,0.0001,0.0,0.0,0.0,0.0001,0.0,0.0,0.0,0.0001,0.110653556883,0.46299725771,10.008890152,0.0001,0.0,0.0,0.0,0.0001,0.0,0.0,0.0,0.0001
1368538304757739510,13005,1368538304757739510,imu,0.0019962865805,-0.0162808150555,-0.0462077824505,0.998797171973,0.0001,0.0,0.0,0.0,0.0001,0.0,0.0,0.0,0.0001,0.0376768149436,-0.00027263656375,0.860368132591,0.0001,0.0,0.0,0.0,0.0001,0.0,0.0,0.0,0.0001,0.0780953466892,0.207165434957,9.91363430023,0.0001,0.0,0.0,0.0,0.0001,0.0,0.0,0.0,0.0001
1368538304767739266,13006,1368538304767739266,imu,0.00216851988883,-0.0163308258591,-0.0418313402831,0.998988859106,0.0001,0.0,0.0,0.0,0.0001,0.0,0.0,0.0,0.0001,0.0454470030963,0.00198244862258,0.875516355038,0.0001,0.0,0.0,0.0,0.0001,0.0,0.0,0.0,0.0001,0.12393206358,0.0636672228575,9.61281585693,0.0001,0.0,0.0,0.0,0.0001,0.0,0.0,0.0,0.0001
1368538304777737807,13007,1368538304777737807,imu,0.00239657450912,-0.0163576776074,-0.03744467536,0.999161938377,0.0001,0.0,0.0,0.0,0.0001,0.0,0.0,0.0,0.0001,0.0467446632683,0.00671771075577,0.878141522408,0.0001,0.0,0.0,0.0,0.0001,0.0,0.0,0.0,0.0001,0.114564821124,-0.0427994728088,9.63781738281,0.0001,0.0,0.0,0.0,0.0001,0.0,0.0,0.0,0.0001
1368538304787740444,13008,1368538304787740444,imu,0.00250853859174,-0.0163357068051,-0.0330098426155,0.999318368793,0.0001,0.0,0.0,0.0,0.0001,0.0,0.0,0.0,0.0001,0.0330509208143,0.0158752761781,0.88715416193,0.0001,0.0,0.0,0.0,0.0001,0.0,0.0,0.0,0.0001,0.199508979917,-0.0429605320096,9.73872661591,0.0001,0.0,0.0,0.0,0.0001,0.0,0.0,0.0,0.0001
1368538304797749507,13009,1368538304797749507,imu,0.00260456992494,-0.0162721007905,-0.0285572872923,0.999456310348,0.0001,0.0,0.0,0.0,0.0001,0.0,0.0,0.0,0.0001,0.0202312618494,0.0238277204335,0.891439020634,0.0001,0.0,0.0,0.0,0.0001,0.0,0.0,0.0,0.0001,0.13361902535,0.010203095153,9.68826389313,0.0001,0.0,0.0,0.0,0.0001,0.0,0.0,0.0,0.0001
1368538304807746750,13010,1368538304807746750,imu,0.002584987673,-0.0161975908189,-0.0240988983757,0.999575009185,0.0001,0.0,0.0,0.0,0.0001,0.0,0.0,0.0,0.0001,0.00652042450383,0.0254998877645,0.892214596272,0.0001,0.0,0.0,0.0,0.0001,0.0,0.0,0.0,0.0001,0.13020953536,0.218001276255,9.68955421448,0.0001,0.0,0.0,0.0,0.0001,0.0,0.0,0.0,0.0001
1368538304817615176,13011,1368538304817615176,imu,0.00258822634892,-0.016084613216,-0.0196472108717,0.999674233642,0.0001,0.0,0.0,0.0,0.0001,0.0,0.0,0.0,0.0001,0.00131797103677,0.0330645292997,0.891340732574,0.0001,0.0,0.0,0.0,0.0001,0.0,0.0,0.0,0.0001,0.118400238454,0.259497612715,10.1313438416,0.0001,0.0,0.0,0.0,0.0001,0.0,0.0,0.0,0.0001
1368538304827614759,13012,1368538304827614759,imu,0.00262444061951,-0.0160871305457,-0.0151859389492,0.999751821104,0.0001,0.0,0.0,0.0,0.0001,0.0,0.0,0.0,0.0001,0.0179590377957,0.0102033931762,0.892005264759,0.0001,0.0,0.0,0.0,0.0001,0.0,0.0,0.0,0.0001,0.139970004559,0.225169435143,10.2599477768,0.0001,0.0,0.0,0.0,0.0001,0.0,0.0,0.0,0.0001
1368538304837488068,13013,1368538304837488068,imu,0.00285875563429,-0.0161794323096,-0.0107375156702,0.999807361067,0.0001,0.0,0.0,0.0,0.0001,0.0,0.0,0.0,0.0001,0.048113245517,-0.00733570335433,0.889905333519,0.0001,0.0,0.0,0.0,0.0001,0.0,0.0,0.0,0.0001,0.150144383311,0.274213343859,10.1065835953,0.0001,0.0,0.0,0.0,0.0001,0.0,0.0,0.0,0.0001
1368538304848490315,13014,1368538304848490315,imu,0.00307458163945,-0.0163209176603,-0.00625272972598,0.999842526584,0.0001,0.0,0.0,0.0,0.0001,0.0,0.0,0.0,0.0001,0.0543515384197,-0.0171459335834,0.896157860756,0.0001,0.0,0.0,0.0,0.0001,0.0,0.0,0.0,0.0001,0.185477077961,0.265874922276,9.83426380157,0.0001,0.0,0.0,0.0,0.0001,0.0,0.0,0.0,0.0001
1368538304858488133,13015,1368538304858488133,imu,0.0033214987154,-0.0164487283904,-0.00179440208649,0.99985758341,0.0001,0.0,0.0,0.0,0.0001,0.0,0.0,0.0,0.0001,0.0505319535732,-0.0144610321149,0.891809165478,0.0001,0.0,0.0,0.0,0.0001,0.0,0.0,0.0,0.0001,0.220214813948,0.368608146906,9.58074378967,0.0001,0.0,0.0,0.0,0.0001,0.0,0.0,0.0,0.0001
1368538304868467182,13016,1368538304868467182,imu,0.00343307879879,-0.0165725716654,0.00280268227203,0.999852843578,0.0001,0.0,0.0,0.0,0.0001,0.0,0.0,0.0,0.0001,0.033881302923,-0.013683822006,0.91892260313,0.0001,0.0,0.0,0.0,0.0001,0.0,0.0,0.0,0.0001,0.308751225471,0.31140011549,9.47070503235,0.0001,0.0,0.0,0.0,0.0001,0.0,0.0,0.0,0.0001
1368538304878488860,13017,1368538304878488860,imu,0.00346158036237,-0.0165467280104,0.0074279760033,0.99982950968,0.0001,0.0,0.0,0.0,0.0001,0.0,0.0,0.0,0.0001,0.00741660129279,0.0164261013269,0.925823628902,0.0001,0.0,0.0,0.0,0.0001,0.0,0.0,0.0,0.0001,0.304658591747,0.156804248691,9.45463943481,0.0001,0.0,0.0,0.0,0.0001,0.0,0.0,0.0,0.0001
1368538304888366092,13018,1368538304888366092,imu,0.00340187056751,-0.0164739084751,0.0121198182648,0.999785050709,0.0001,0.0,0.0,0.0,0.0001,0.0,0.0,0.0,0.0001,0.000121774268337,0.025753447786,0.938326120377,0.0001,0.0,0.0,0.0,0.0001,0.0,0.0,0.0,0.0001,0.323309004307,0.126814335585,9.69251060486,0.0001,0.0,0.0,0.0,0.0001,0.0,0.0,0.0,0.0001
1368538304898372706,13019,1368538304898372706,imu,0.00335858612906,-0.0163125643365,0.0168227495852,0.999719768355,0.0001,0.0,0.0,0.0,0.0001,0.0,0.0,0.0,0.0001,-0.00634219637141,0.0436823964119,0.941570997238,0.0001,0.0,0.0,0.0,0.0001,0.0,0.0,0.0,0.0001,0.238525941968,0.197414085269,10.0549278259,0.0001,0.0,0.0,0.0,0.0001,0.0,0.0,0.0,0.0001
1368538304908373270,13020,1368538304908373270,imu,0.00342433917637,-0.0162330247893,0.0217295995109,0.999626223802,0.0001,0.0,0.0,0.0,0.0001,0.0,0.0,0.0,0.0001,0.0258836857975,0.0266751553863,0.981108546257,0.0001,0.0,0.0,0.0,0.0001,0.0,0.0,0.0,0.0001,0.21750703454,0.220031425357,10.3876848221,0.0001,0.0,0.0,0.0,0.0001,0.0,0.0,0.0,0.0001
1368538304918363069,13021,1368538304918363069,imu,0.00370795315953,-0.0163034179537,0.0267031017852,0.999503573781,0.0001,0.0,0.0,0.0,0.0001,0.0,0.0,0.0,0.0001,0.0590368807316,-0.00384252145886,0.994983255863,0.0001,0.0,0.0,0.0,0.0001,0.0,0.0,0.0,0.0001,0.252689003944,0.107114300132,10.2664909363,0.0001,0.0,0.0,0.0,0.0001,0.0,0.0,0.0,0.0001
1368538304928367481,13022,1368538304928367481,imu,0.00398048891113,-0.0164261286609,0.031744980226,0.99935308787,0.0001,0.0,0.0,0.0,0.0001,0.0,0.0,0.0,0.0001,0.0667763128877,-0.0147366132587,1.0079344511,0.0001,0.0,0.0,0.0,0.0001,0.0,0.0,0.0,0.0001,0.224673137069,0.101061284542,9.97552776337,0.0001,0.0,0.0,0.0,0.0001,0.0,0.0,0.0,0.0001
1368538304938246699,13023,1368538304938246699,imu,0.00426171792212,-0.0166382787432,0.0368581570413,0.999172898802,0.0001,0.0,0.0,0.0,0.0001,0.0,0.0,0.0,0.0001,0.0582739375532,-0.0320826098323,1.02336001396,0.0001,0.0,0.0,0.0,0.0001,0.0,0.0,0.0,0.0001,0.348244816065,0.190612658858,9.49274730682,0.0001,0.0,0.0,0.0,0.0001,0.0,0.0,0.0,0.0001
1368538304948220084,13024,1368538304948220084,imu,0.00434346300006,-0.0167332114495,0.0419877445536,0.998968549691,0.0001,0.0,0.0,0.0,0.0001,0.0,0.0,0.0,0.0001,0.0292747877538,-0.00788261834532,1.02634954453,0.0001,0.0,0.0,0.0,0.0001,0.0,0.0,0.0,0.0001,0.30597665906,0.119350917637,9.18290996552,0.0001,0.0,0.0,0.0,0.0001,0.0,0.0,0.0,0.0001
1368538304958240458,13025,1368538304958240458,imu,0.00438448707703,-0.0166832508606,0.0471455023105,0.998739078551,0.0001,0.0,0.0,0.0,0.0001,0.0,0.0,0.0,0.0001,0.0125954588875,0.0221702810377,1.03323245049,0.0001,0.0,0.0,0.0,0.0001,0.0,0.0,0.0,0.0001,0.309991061687,0.19130012393,9.30870246887,0.0001,0.0,0.0,0.0,0.0001,0.0,0.0,0.0,0.0001
1368538304968242314,13026,1368538304968242314,imu,0.00432960351543,-0.016503743637,0.0523340069051,0.998483867021,0.0001,0.0,0.0,0.0,0.0001,0.0,0.0,0.0,0.0001,0.00465562520549,0.0480693131685,1.03865849972,0.0001,0.0,0.0,0.0,0.0001,0.0,0.0,0.0,0.0001,0.269614726305,0.155736118555,9.66873931885,0.0001,0.0,0.0,0.0,0.0001,0.0,0.0,0.0,0.0001
1368538304978113455,13027,1368538304978113455,imu,0.00435836557968,-0.016349489141,0.0574790776188,0.998203313203,0.0001,0.0,0.0,0.0,0.0001,0.0,0.0,0.0,0.0001,0.0112093882635,0.0429698079824,1.03115153313,0.0001,0.0,0.0,0.0,0.0001,0.0,0.0,0.0,0.0001,0.170296937227,0.104975320399,10.141283989,0.0001,0.0,0.0,0.0,0.0001,0.0,0.0,0.0,0.0001
1368538304988117373,13028,1368538304988117373,imu,0.00446475489565,-0.016248630197,0.0626486317793,0.997893379533,0.0001,0.0,0.0,0.0,0.0001,0.0,0.0,0.0,0.0001,0.0359663926065,0.030402097851,1.03511703014,0.0001,0.0,0.0,0.0,0.0001,0.0,0.0,0.0,0.0001,0.118165828288,0.0358413420618,10.4336776733,0.0001,0.0,0.0,0.0,0.0001,0.0,0.0,0.0,0.0001
1368538304998120132,13029,1368538304998120132,imu,0.00476741251596,-0.0162987802211,0.0677945373724,0.997554771551,0.0001,0.0,0.0,0.0,0.0001,0.0,0.0,0.0,0.0001,0.0637671425939,-0.00135613337625,1.03129172325,0.0001,0.0,0.0,0.0,0.0001,0.0,0.0,0.0,0.0001,0.0995813161135,-0.0458023734391,10.3032674789,0.0001,0.0,0.0,0.0,0.0001,0.0,0.0,0.0,0.0001
1368538305008124188,13030,1368538305008124188,imu,0.00502951659826,-0.0164383108501,0.0729079362262,0.997190512758,0.0001,0.0,0.0,0.0,0.0001,0.0,0.0,0.0,0.0001,0.0638096109033,-0.0197086557746,1.02434909344,0.0001,0.0,0.0,0.0,0.0001,0.0,0.0,0.0,0.0001,0.132871866226,-0.0294440183789,9.90943717957,0.0001,0.0,0.0,0.0,0.0001,0.0,0.0,0.0,0.0001
1368538305018113313,13031,1368538305018113313,imu,0.00516800898822,-0.0165473670439,0.0779475297175,0.996806730985,0.0001,0.0,0.0,0.0,0.0001,0.0,0.0,0.0,0.0001,0.0302976313978,-0.0109713282436,1.01130127907,0.0001,0.0,0.0,0.0,0.0001,0.0,0.0,0.0,0.0001,0.173331573606,0.00135186454281,9.53485870361,0.0001,0.0,0.0,0.0,0.0001,0.0,0.0,0.0,0.0001
1368538305027966775,13032,1368538305027966775,imu,0.0050874261684,-0.0165657693266,0.0828798481196,0.99640886395,0.0001,0.0,0.0,0.0,0.0001,0.0,0.0,0.0,0.0001,-0.00322935939766,0.00936222821474,0.989658415318,0.0001,0.0,0.0,0.0,0.0001,0.0,0.0,0.0,0.0001,0.203449174762,-0.00493263499811,9.34028530121,0.0001,0.0,0.0,0.0,0.0001,0.0,0.0,0.0,0.0001
1368538305037987379,13033,1368538305037987379,imu,0.00503742332011,-0.0164545562512,0.0878214058176,0.995987586582,0.0001,0.0,0.0,0.0,0.0001,0.0,0.0,0.0,0.0001,-0.00360963540152,0.0356732979417,0.99274533987,0.0001,0.0,0.0,0.0,0.0001,0.0,0.0,0.0,0.0001,0.209021255374,-0.108597636223,9.28981876373,0.0001,0.0,0.0,0.0,0.0001,0.0,0.0,0.0,0.0001
1368538305047989670,13034,1368538305047989670,imu,0.00493645521297,-0.0162903008994,0.0926487302199,0.995553348794,0.0001,0.0,0.0,0.0,0.0001,0.0,0.0,0.0,0.0001,-0.00452182488516,0.0459190234542,0.969077408314,0.0001,0.0,0.0,0.0,0.0001,0.0,0.0,0.0,0.0001,0.117274843156,-0.20763053,9.75525951385,0.0001,0.0,0.0,0.0,0.0001,0.0,0.0,0.0,0.0001
1368538305057991913,13035,1368538305057991913,imu,0.00504946775333,-0.0161933944404,0.0974421871323,0.995096626976,0.0001,0.0,0.0,0.0,0.0001,0.0,0.0,0.0,0.0001,0.0287352111191,0.0294157750905,0.963345527649,0.0001,0.0,0.0,0.0,0.0001,0.0,0.0,0.0,0.0001,0.0686941146851,-0.215021565557,10.2949037552,0.0001,0.0,0.0,0.0,0.0001,0.0,0.0,0.0,0.0001
1368538305067862570,13036,1368538305067862570,imu,0.00530770896278,-0.0161723208508,0.102224419865,0.994615730947,0.0001,0.0,0.0,0.0,0.0001,0.0,0.0,0.0,0.0001,0.064154677093,0.0104224160314,0.959752500057,0.0001,0.0,0.0,0.0,0.0001,0.0,0.0,0.0,0.0001,-0.0282170977443,-0.0861114859581,10.5770206451,0.0001,0.0,0.0,0.0,0.0001,0.0,0.0,0.0,0.0001
1368538305077865287,13037,1368538305077865287,imu,0.00560473316486,-0.0163482159415,0.107025798705,0.994106031172,0.0001,0.0,0.0,0.0,0.0001,0.0,0.0,0.0,0.0001,0.0602766685188,-0.0287742670625,0.965660214424,0.0001,0.0,0.0,0.0,0.0001,0.0,0.0,0.0,0.0001,0.0376568883657,0.0744018480182,10.3956193924,0.0001,0.0,0.0,0.0,0.0001,0.0,0.0,0.0,0.0001
1368538305087858248,13038,1368538305087858248,imu,0.0057832143453,-0.0165430769676,0.111793029396,0.993576972164,0.0001,0.0,0.0,0.0,0.0001,0.0,0.0,0.0,0.0001,0.0438821278512,-0.0309591479599,0.958670198917,0.0001,0.0,0.0,0.0,0.0001,0.0,0.0,0.0,0.0001,0.146892204881,0.130223602057,9.87922000885,0.0001,0.0,0.0,0.0,0.0001,0.0,0.0,0.0,0.0001
1368538305097871129,13039,1368538305097871129,imu,0.00592729180458,-0.0167420062502,0.116596544916,0.993020552734,0.0001,0.0,0.0,0.0,0.0001,0.0,0.0,0.0,0.0001,0.0294120367616,-0.0301666110754,0.967643499374,0.0001,0.0,0.0,0.0,0.0001,0.0,0.0,0.0,0.0001,0.172860577703,0.282539010048,9.33660697937,0.0001,0.0,0.0,0.0,0.0001,0.0,0.0,0.0,0.0001
